[
    {
        "Latitude": "30.257923",
        "Longitude": "120.092937",
        "Name": "西溪路加油站",
        "Address": "紫金港路与西溪路交叉口"
    },
    {
        "Latitude": "30.263474",
        "Longitude": "120.096711",
        "Name": "古荡加油站",
        "Address": "天目山路(西向东)与紫荆花路交叉口"
    },
    {
        "Latitude": "30.284567",
        "Longitude": "120.108056",
        "Name": "丰潭路加油站",
        "Address": "丰潭路(北向南)与文一西路交叉口，往南150米"
    },
    {
        "Latitude": "30.282455",
        "Longitude": "120.125783",
        "Name": "文二路加油站",
        "Address": "文二路(西向东)与万塘路交叉口，往东150米"
    },
    {
        "Latitude": "30.276641",
        "Longitude": "120.122052",
        "Name": "文三路加油站",
        "Address": "文三路(东向西)与万塘路交叉口，往西150米"
    },
    {
        "Latitude": "30.271813",
        "Longitude": "120.147694",
        "Name": "天目山路加油站",
        "Address": "天目山路(西向东)与保俶交叉口，往东150米"
    },
    {
        "Latitude": "30.26345",
        "Longitude": "120.180444",
        "Name": "建国北路加油站",
        "Address": "建国北路(北向南)与凤起路交叉口，往南100米"
    },
    {
        "Latitude": "30.246438",
        "Longitude": "120.183",
        "Name": "城站加油站",
        "Address": "城站邮驿路"
    },
    {
        "Latitude": "30.300177",
        "Longitude": "120.118069",
        "Name": "登云路加油站",
        "Address": "登云路(北向南)与沁园路交叉口"
    },
    {
        "Latitude": "30.30642",
        "Longitude": "120.125928",
        "Name": "和睦加油站",
        "Address": "莫干山路(北向南)与登云路交叉口，往南150米"
    },
    {
        "Latitude": "30.292891",
        "Longitude": "120.141815",
        "Name": "莫干山路加油站",
        "Address": "莫干山路(北向南)与西溪河下路交叉口"
    },
    {
        "Latitude": "30.309778",
        "Longitude": "120.147217",
        "Name": "大关加油站",
        "Address": "上塘路(北向南)与登云路交叉口，往南500米"
    },
    {
        "Latitude": "30.32642",
        "Longitude": "120.131287",
        "Name": "衢州路加油站",
        "Address": "通益路(南向北)与湖州街交叉口，往北500米"
    },
    {
        "Latitude": "30.330247",
        "Longitude": "120.105455",
        "Name": "祥符加油站",
        "Address": "莫干山路(南向北)与星桥路交叉口，往北50米"
    },
    {
        "Latitude": "30.314744",
        "Longitude": "120.158812",
        "Name": "沈半路加油站",
        "Address": "沈半路(西向东)与树人街交叉口"
    },
    {
        "Latitude": "30.306343",
        "Longitude": "120.160912",
        "Name": "金通加油站",
        "Address": "绍兴路(南向北)与香积寺路交叉口，往北150米"
    },
    {
        "Latitude": "30.325161",
        "Longitude": "120.172156",
        "Name": "石祥路加油站",
        "Address": "东新路(南向北)与石祥路交叉口"
    },
    {
        "Latitude": "30.302659",
        "Longitude": "120.1816",
        "Name": "东新加油站",
        "Address": "德胜路(西向东)与东兴路交叉口，往东500米"
    },
    {
        "Latitude": "30.311151",
        "Longitude": "120.17549",
        "Name": "东恒加油站",
        "Address": "东新路(南向北)与香积寺路交叉口，往北500米"
    },
    {
        "Latitude": "30.283937",
        "Longitude": "120.187967",
        "Name": "天城路加油站",
        "Address": "天城路(东向西)与机场路交叉口，往西500米"
    },
    {
        "Latitude": "30.29244",
        "Longitude": "120.19822",
        "Name": "机场路加油站",
        "Address": "机场路(北向南)与秋涛北路交叉口"
    },
    {
        "Latitude": "30.330384",
        "Longitude": "120.219352",
        "Name": "笕丁路加油站",
        "Address": "笕丁路128号"
    },
    {
        "Latitude": "30.265021",
        "Longitude": "120.207625",
        "Name": "新塘路加油站",
        "Address": "新塘路(北向南)与凤起东路交叉口"
    },
    {
        "Latitude": "30.225422",
        "Longitude": "120.179859",
        "Name": "秋涛路加油站",
        "Address": "秋涛路(北向南)，原木材交易市场对面"
    },
    {
        "Latitude": "30.21264",
        "Longitude": "120.168409",
        "Name": "复兴路加油站",
        "Address": "复兴路(南向北)与美政路交叉口"
    },
    {
        "Latitude": "30.212902",
        "Longitude": "120.224958",
        "Name": "西兴路加油站",
        "Address": "西兴路(南向北)与江南大道交叉口"
    },
    {
        "Latitude": "30.181719",
        "Longitude": "120.23816",
        "Name": "金城路加油站",
        "Address": "萧山区金城路"
    },
    {
        "Latitude": "30.174726",
        "Longitude": "120.146425",
        "Name": "杨家墩加油站",
        "Address": "浦沿路(北向南)与东信大道交叉口，往南500米"
    },
    {
        "Latitude": "30.155242",
        "Longitude": "120.156212",
        "Name": "江南加油站",
        "Address": "浦沿路与西厢路交叉口附近"
    }
]