[{
    "Id": "1000",
    "NodeName": "沃尔玛凤起店",
    "Latitude": 30.263724,
    "Longitude": 120.18708,
    "DistrictCode": "1",
    "Address": "环城东路37号"
},
{
    "Id": "1001",
    "NodeName": "新城时代广场",
    "Latitude": 30.264027,
    "Longitude": 120.20718,
    "DistrictCode": "1",
    "Address": "凤起东路189号"
},
{
    "Id": "1002",
    "NodeName": "滨江区政府",
    "Latitude": 30.208683,
    "Longitude": 120.213532,
    "DistrictCode": "2",
    "Address": "盾安发展大厦对面"
},
{
    "Id": "1003",
    "NodeName": "森禾商务广场",
    "Latitude": 30.25338,
    "Longitude": 120.20625,
    "DistrictCode": "1",
    "Address": "杭海路238号"
},
{
    "Id": "1004",
    "NodeName": "大名空间商务大厦",
    "Latitude": 30.21528,
    "Longitude": 120.17621,
    "DistrictCode": "1",
    "Address": "龙舌路46号"
},
{
    "Id": "1005",
    "NodeName": "万银国际大厦",
    "Latitude": 30.25304,
    "Longitude": 120.21778,
    "DistrictCode": "1",
    "Address": "民心路100号"
},
{
    "Id": "1006",
    "NodeName": "华城国际发展大厦",
    "Latitude": 30.241521,
    "Longitude": 120.207826,
    "DistrictCode": "2",
    "Address": "富春路308号"
},
{
    "Id": "1007",
    "NodeName": "银丰大厦",
    "Latitude": 30.212735,
    "Longitude": 120.212571,
    "DistrictCode": "2",
    "Address": "滨盛路1505号"
},
{
    "Id": "1008",
    "NodeName": "绿城丽园",
    "Latitude": 30.227973,
    "Longitude": 120.172359,
    "DistrictCode": "2",
    "Address": "江城路325号"
},
{
    "Id": "1009",
    "NodeName": "阳光都市·财富中心",
    "Latitude": 30.274987,
    "Longitude": 120.178898,
    "DistrictCode": "2",
    "Address": "环城北路59号"
},
{
    "Id": "1010",
    "NodeName": "西湖铭楼",
    "Latitude": 30.27346,
    "Longitude": 120.15526,
    "DistrictCode": "1",
    "Address": "庆春路296号"
},
{
    "Id": "1011",
    "NodeName": "西湖国贸",
    "Latitude": 30.257084,
    "Longitude": 120.160265,
    "DistrictCode": "2",
    "Address": "长生路58号"
},
{
    "Id": "1012",
    "NodeName": "同方财富大厦",
    "Latitude": 30.264866,
    "Longitude": 120.168172,
    "DistrictCode": "2",
    "Address": "凤起路334号"
},
{
    "Id": "1013",
    "NodeName": "新河公寓",
    "Latitude": 30.285023,
    "Longitude": 120.150464,
    "DistrictCode": "1",
    "Address": "潮王路288号"
},
{
    "Id": "1014",
    "NodeName": "新湖北国之春",
    "Latitude": 30.316398,
    "Longitude": 120.141079,
    "DistrictCode": "1",
    "Address": "衢州街105号"
},
{
    "Id": "1015",
    "NodeName": "东方通信科技园",
    "Latitude": 30.176984,
    "Longitude": 120.143601,
    "DistrictCode": "1",
    "Address": "东信大道66号"
},
{
    "Id": "1016",
    "NodeName": "采荷嘉业",
    "Latitude": 30.257714,
    "Longitude": 120.20796,
    "DistrictCode": "1",
    "Address": "江干区庆春东路与新塘路交叉口"
},
{
    "Id": "1018",
    "NodeName": "枫华府第",
    "Latitude": 30.28118,
    "Longitude": 120.1292,
    "DistrictCode": "1",
    "Address": "学院路129号"
},
{
    "Id": "1019",
    "NodeName": "聚龙大厦",
    "Latitude": 30.269015,
    "Longitude": 120.139314,
    "DistrictCode": "2",
    "Address": "杭大路9号"
},
{
    "Id": "1020",
    "NodeName": "银马公寓",
    "Latitude": 30.28761,
    "Longitude": 120.13658,
    "DistrictCode": "2",
    "Address": "文一路123号"
},
{
    "Id": "1021",
    "NodeName": "莲花商务中心",
    "Latitude": 30.271799,
    "Longitude": 120.110403,
    "DistrictCode": "2",
    "Address": "莲花街35号"
},
{
    "Id": "1022",
    "NodeName": "浙江大学城市学院",
    "Latitude": 30.324638,
    "Longitude": 120.156121,
    "DistrictCode": "1",
    "Address": "湖州街51号"
},
{
    "Id": "1023",
    "NodeName": "龙禧大酒店",
    "Latitude": 30.18423,
    "Longitude": 120.16234,
    "DistrictCode": "1",
    "Address": "江南大道3788号"
},
{
    "Id": "1024",
    "NodeName": "浙一医院城站分院",
    "Latitude": 30.246646,
    "Longitude": 120.180567,
    "DistrictCode": "1",
    "Address": "城站路58号"
},
{
    "Id": "1025",
    "NodeName": "绿城紫兰公寓",
    "Latitude": 30.298604,
    "Longitude": 120.143437,
    "DistrictCode": "1",
    "Address": "湖墅北路贾家弄小区东南侧"
},
{
    "Id": "1026",
    "NodeName": "万家花城",
    "Latitude": 30.302154,
    "Longitude": 120.109679,
    "DistrictCode": "1",
    "Address": "拱墅区萍水东路38号"
},
{
    "Id": "1027",
    "NodeName": "浙大科技园",
    "Latitude": 30.267449,
    "Longitude": 120.110497,
    "DistrictCode": "1",
    "Address": "西溪路525号"
},
{
    "Id": "1028",
    "NodeName": "赛博创业工场",
    "Latitude": 30.331785,
    "Longitude": 120.222876,
    "DistrictCode": "1",
    "Address": "笕丁路168号"
},
{
    "Id": "1029",
    "NodeName": "兰庭国际",
    "Latitude": 30.284162,
    "Longitude": 120.139414,
    "DistrictCode": "2",
    "Address": "文二路128号"
},
{
    "Id": "1030",
    "NodeName": "浙江传媒学院",
    "Latitude": 30.319266,
    "Longitude": 120.342699,
    "DistrictCode": "1",
    "Address": "学源街998号"
},
{
    "Id": "1031",
    "NodeName": "阿里巴巴",
    "Latitude": 30.188709,
    "Longitude": 120.18995,
    "DistrictCode": "2",
    "Address": "网商路699号"
},
{
    "Id": "1032",
    "NodeName": "海康威视",
    "Latitude": 30.184288,
    "Longitude": 120.212153,
    "DistrictCode": "2",
    "Address": "东流路700号"
},
{
    "Id": "1032",
    "NodeName": "马可波罗花园酒店",
    "Latitude": 30.345091,
    "Longitude": 120.147777,
    "DistrictCode": "1",
    "Address": "拱康路100号"
},
{
    "Id": "1033",
    "NodeName": "黄龙时代广场",
    "Latitude": 30.272659,
    "Longitude": 120.125172,
    "DistrictCode": "2",
    "Address": "天目山路278号"
},
{
    "Id": "1034",
    "NodeName": "东忠科技园",
    "Latitude": 30.188767,
    "Longitude": 120.197138,
    "DistrictCode": "1",
    "Address": "滨江区长河路590号"
},
{
    "Id": "1035",
    "NodeName": "浙大玉泉校区",
    "Latitude": 30.265195,
    "Longitude": 120.12739,
    "DistrictCode": "2",
    "Address": "西湖区浙大路38号"
},
{
    "Id": "1036",
    "NodeName": "杭州瑞丰格琳酒店",
    "Latitude": 30.254512,
    "Longitude": 120.184177,
    "DistrictCode": "1",
    "Address": "上城区老浙大横路31号"
},
{
    "Id": "1037",
    "NodeName": "颐高创业大厦",
    "Latitude": 30.275242,
    "Longitude": 120.133424,
    "DistrictCode": "1",
    "Address": "黄姑山路29号"
},
{
    "Id": "1038",
    "NodeName": "浙大紫金港校区",
    "Latitude": 30.304998,
    "Longitude": 120.092685,
    "DistrictCode": "2",
    "Address": "西湖区余杭塘路866号"
},
{
    "Id": "1039",
    "NodeName": "城市之星",
    "Latitude": 30.24088,
    "Longitude": 120.20485,
    "DistrictCode": "1",
    "Address": "江干区城星路与钱江路交界处"
},
{
    "Id": "1040",
    "NodeName": "乐富智汇园",
    "Latitude": 30.334834,
    "Longitude": 120.112882,
    "DistrictCode": "2",
    "Address": "拱墅区祥园路28号"
},
{
    "Id": "1041",
    "NodeName": "国家动画产业基地",
    "Latitude": 30.183975,
    "Longitude": 120.160341,
    "DistrictCode": "1",
    "Address": "滨江区江南大道3880号"
},
{
    "Id": "1042",
    "NodeName": "西湖国际",
    "Latitude": 30.280998,
    "Longitude": 120.121078,
    "DistrictCode": "2",
    "Address": "西湖区文二路391号"
},
{
    "Id": "1043",
    "NodeName": "天堂软件园",
    "Latitude": 30.289604,
    "Longitude": 120.117487,
    "DistrictCode": "2",
    "Address": "西湖区西斗门路3号"
},
{
    "Id": "1044",
    "NodeName": "滨江高教园区",
    "Latitude": 30.173026,
    "Longitude": 120.157919,
    "DistrictCode": "2",
    "Address": "滨江区至善路337号"
},
{
    "Id": "1045",
    "NodeName": "潮人汇",
    "Latitude": 30.18494,
    "Longitude": 120.162157,
    "DistrictCode": "2",
    "Address": "滨江区江南大道3688号"
},
{
    "Id": "1046",
    "NodeName": "软件服务外包基地",
    "Latitude": 30.180207,
    "Longitude": 120.15889,
    "DistrictCode": "1",
    "Address": "滨江区伟业路1号"
},
{
    "Id": "1047",
    "NodeName": "凤凰城",
    "Latitude": 30.219125,
    "Longitude": 120.176128,
    "DistrictCode": "2",
    "Address": "上城区秋涛路28号"
},
{
    "Id": "1048",
    "NodeName": "奥斯卡电影大世界",
    "Latitude": 30.263117,
    "Longitude": 120.159909,
    "DistrictCode": "2",
    "Address": "下城区龙游路38号"
},
{
    "Id": "1049",
    "NodeName": "城站火车站",
    "Latitude": 30.246646,
    "Longitude": 120.180567,
    "DistrictCode": "1",
    "Address": "上城区城站路58号"
},
{
    "Id": "1050",
    "NodeName": "东部软件园",
    "Latitude": 30.278962,
    "Longitude": 120.145905,
    "DistrictCode": "1",
    "Address": "西湖区文三路90号"
},
{
    "Id": "1051",
    "NodeName": "嘉德广场",
    "Latitude": 30.257927,
    "Longitude": 120.171952,
    "DistrictCode": "1",
    "Address": "庆春路118号"
},
{
    "Id": "1052",
    "NodeName": "钛合国际",
    "Latitude": 30.278153,
    "Longitude": 120.170498,
    "DistrictCode": "1",
    "Address": "朝晖路168号"
},
{
    "Id": "1053",
    "NodeName": "望江路",
    "Latitude": 30.235503,
    "Longitude": 120.179148,
    "DistrictCode": "2",
    "Address": "上城区望江路立交桥东桥"
},
{
    "Id": "1054",
    "NodeName": "同方国际",
    "Latitude": 30.27471,
    "Longitude": 120.19884,
    "DistrictCode": "1",
    "Address": "秋涛北路257号 "
},
{
    "Id": "1055",
    "NodeName": "物美文一店",
    "Latitude": 30.288118,
    "Longitude": 120.12412,
    "DistrictCode": "2",
    "Address": "西湖区文一路294号"
},
{
    "Id": "1056",
    "NodeName": "深蓝广场",
    "Latitude": 30.276353,
    "Longitude": 120.16917,
    "DistrictCode": "2",
    "Address": "下城区朝晖路203号"
},
{
    "Id": "1057",
    "NodeName": "三新银座",
    "Latitude": 30.26026,
    "Longitude": 120.20157,
    "DistrictCode": "2",
    "Address": "江干区秋涛北路72号"
},
{
    "Id": "1058",
    "NodeName": "三新大厦",
    "Latitude": 30.260416,
    "Longitude": 120.20711,
    "DistrictCode": "2",
    "Address": "江干区新塘路35号"
},
{
    "Id": "1059",
    "NodeName": "中田大厦",
    "Latitude": 30.26889,
    "Longitude": 120.12978,
    "DistrictCode": "2",
    "Address": "西湖区玉古路173号"
},
{
    "Id": "1060",
    "NodeName": "梧桐公寓",
    "Latitude": 30.28661,
    "Longitude": 120.12956,
    "DistrictCode": "1",
    "Address": "西湖区文一路283号"
},
{
    "Id": "1061",
    "NodeName": "凤起时代大厦",
    "Latitude": 30.263494,
    "Longitude": 120.098733,
    "DistrictCode": "1",
    "Address": "江干区凤起东路336号"
},
{
    "Id": "1062",
    "NodeName": "金桂大厦",
    "Latitude": 30.282455,
    "Longitude": 120.20625,
    "DistrictCode": "2",
    "Address": "古墩路387号"
},
{
    "Id": "1063",
    "NodeName": "新青年广场",
    "Latitude": 30.296471,
    "Longitude": 120.157728,
    "DistrictCode": "1",
    "Address": "拱墅区上塘路267号"
},
{
    "Id": "1064",
    "NodeName": "百脑汇",
    "Latitude": 30.273917,
    "Longitude": 120.13502,
    "DistrictCode": "2",
    "Address": "西湖区教工路23号"
},
{
    "Id": "1065",
    "NodeName": "海创基地",
    "Latitude": 30.18687,
    "Longitude": 120.13854,
    "DistrictCode": "2",
    "Address": "滨江区六和路368号"
},
{
    "Id": "1066",
    "NodeName": "数娱大厦",
    "Latitude": 30.287629,
    "Longitude": 120.112474,
    "DistrictCode": "1",
    "Address": "文一西路98号"
},
{
    "Id": "1067",
    "NodeName": "杭州高新科技园",
    "Latitude": 30.189389,
    "Longitude": 120.200477,
    "DistrictCode": "1",
    "Address": "春波路1288"
},
{
    "Id": "1068",
    "NodeName": "南都研发中心大楼",
    "Latitude": 30.268911,
    "Longitude": 120.097429,
    "DistrictCode": "1",
    "Address": "西湖区紫荆花路50号"
},
{
    "Id": "1069",
    "NodeName": "金润科技园",
    "Latitude": 30.18889,
    "Longitude": 120.198202,
    "DistrictCode": "1",
    "Address": "春波路1517号"
},
{
    "Id": "1070",
    "NodeName": "绿城丽园",
    "Latitude": 30.227973,
    "Longitude": 120.172359,
    "DistrictCode": "2",
    "Address": "江城路325号"
},
{
    "Id": "1071",
    "NodeName": "双城国际",
    "Latitude": 30.207098,
    "Longitude": 120.201944,
    "DistrictCode": "1",
    "Address": "江汉路1785号"
},
{
    "Id": "1072",
    "NodeName": "尊宝大厦",
    "Latitude": 30.238956,
    "Longitude": 120.207818,
    "DistrictCode": "1",
    "Address": "城星路89号"
},
{
    "Id": "1073",
    "NodeName": "尚筑金座",
    "Latitude": 30.237665,
    "Longitude": 120.192972,
    "DistrictCode": "1",
    "Address": "近江路108号"
},
{
    "Id": "1074",
    "NodeName": "蓝海时代大厦",
    "Latitude": 30.279724,
    "Longitude": 120.114018,
    "DistrictCode": "1",
    "Address": "益乐路39号"
},
{
    "Id": "1075",
    "NodeName": "浙江日报",
    "Latitude": 30.270243,
    "Longitude": 120.174647,
    "DistrictCode": "1",
    "Address": "体育场路178号"
},
{
    "Id": "1076",
    "NodeName": "淘宝城",
    "Latitude": 30.279851,
    "Longitude": 120.025323,
    "DistrictCode": "1",
    "Address": "文一西路与高教路交叉口"
},
{
    "Id": "1077",
    "NodeName": "合生国贸",
    "Latitude": 30.262433,
    "Longitude": 120.09983,
    "DistrictCode": "1",
    "Address": "天目山路527号"
},
{
    "Id": "1078",
    "NodeName": "郁金香岸",
    "Latitude": 30.140929,
    "Longitude": 120.156502,
    "DistrictCode": "1",
    "Address": "万达路与五金路交叉口"
},
{
    "Id": "1079",
    "NodeName": "玛斯兰克主题餐厅",
    "Latitude": 30.274308,
    "Longitude": 120.134012,
    "DistrictCode": "1",
    "Address": "黄姑山路4号"
},
{
    "Id": "1080",
    "NodeName": "新绿园  ",
    "Latitude": 30.223225,
    "Longitude": 120.191827,
    "DistrictCode": "1",
    "Address": "上城区鲲鹏路97号"
},
{
    "Id": "1081",
    "NodeName": "世贸丽晶城·欧美中心",
    "Latitude": 30.273555,
    "Longitude": 120.13844,
    "DistrictCode": "1",
    "Address": "西湖区教工路18号"
},
{
    "Id": "1082",
    "NodeName": "华辰国际饭店",
    "Latitude": 30.254366,
    "Longitude": 120.168159,
    "DistrictCode": "1",
    "Address": "上城区平海路25号"
},
{
    "Id": "1083",
    "NodeName": "马可波罗滨湖酒店",
    "Latitude": 30.249517,
    "Longitude": 120.166102,
    "DistrictCode": "1",
    "Address": "上城区浣沙路99号"
},
{
    "Id": "1084",
    "NodeName": "环球中心",
    "Latitude": 30.278047,
    "Longitude": 120.163183,
    "DistrictCode": "1",
    "Address": "下城区西湖文化广场18号"
},
{
    "Id": "1085",
    "NodeName": "华星时代大厦",
    "Latitude": 30.277074,
    "Longitude": 120.124822,
    "DistrictCode": "1",
    "Address": "文三路478号"
},
{
    "Id": "1086",
    "NodeName": "中赢国际",
    "Latitude": 30.197396,
    "Longitude": 120.211806,
    "DistrictCode": "1",
    "Address": "滨江区江晖路滨河路交叉口"
},
{
    "Id": "1087",
    "NodeName": "诺基亚西门子大楼",
    "Latitude": 30.188556,
    "Longitude": 120.171812,
    "DistrictCode": "1",
    "Address": "滨江区江南大道信诚路口"
},
{
    "Id": "1088",
    "NodeName": "庆春发展大厦",
    "Latitude": 30.257853,
    "Longitude": 120.196507,
    "DistrictCode": "1",
    "Address": "江干区庆春东路66号"
}]