[{
	"Id": 1074,
	"Name": "数娱大厦",
	"Area": 5,
	"Longitude": 120.112031,
	"Latitude": 30.28739,
	"Address": "西湖区文一西路98号",
	"Space": "中国银行门口地面停车位"
},
{
	"Id": 1073,
	"Name": "新城市广场",
	"Area": 10,
	"Longitude": 120.199688,
	"Latitude": 30.261819,
	"Address": "江干区秋涛北路79号",
	"Space": "地下车库1层12、13"
},
{
	"Id": 1072,
	"Name": "颐高创业大厦",
	"Area": 5,
	"Longitude": 120.133424,
	"Latitude": 30.275242,
	"Address": "杭州市西湖区皇姑山路２９号",
	"Space": "地面专用停车区域"
},
{
	"Id": 1071,
	"Name": "国都枫华府第",
	"Area": 5,
	"Longitude": 120.1292,
	"Latitude": 30.28118,
	"Address": "学院路129号",
	"Space": "地面专用停车位"
},
{
	"Id": 1070,
	"Name": "新绿园",
	"Area": 6,
	"Longitude": 120.191827,
	"Latitude": 30.223225,
	"Address": "鲲鹏路97号",
	"Space": "地下车库专用停车位"
},
{
	"Id": 1069,
	"Name": "玛斯兰克葡萄酒主题餐厅",
	"Area": 5,
	"Longitude": 120.134012,
	"Latitude": 30.274308,
	"Address": "黄姑山路４号",
	"Space": "士兰微电子有限公司大门内停车场"
},
{
	"Id": 1068,
	"Name": "南都研发中心大楼",
	"Area": 5,
	"Longitude": 120.097429,
	"Latitude": 30.268911,
	"Address": "西湖区紫荆花路50号",
	"Space": "研发中心大楼专用停车位"
},
{
	"Id": 1067,
	"Name": "采荷嘉业",
	"Area": 10,
	"Longitude": 120.207601,
	"Latitude": 30.256743,
	"Address": "江干区庆春东路与新塘路交叉口",
	"Space": "采荷嘉业写字楼专用停车位"
},
{
	"Id": 1066,
	"Name": "龙禧大酒店",
	"Area": 9,
	"Longitude": 120.162172,
	"Latitude": 30.183899,
	"Address": "滨江区江南大道3788号",
	"Space": "酒店门口专用车位（中国银行旁）"
},
{
	"Id": 1065,
	"Name": "银马公寓",
	"Area": 5,
	"Longitude": 120.137338,
	"Latitude": 30.288034,
	"Address": "西湖区文一路123号华浙银马公寓",
	"Space": "文一路入口，工商银行银马公寓停车场"
},
{
	"Id": 1064,
	"Name": "莲花商务中心",
	"Area": 5,
	"Longitude": 120.099615,
	"Latitude": 30.269481,
	"Address": "西湖区莲花街35号",
	"Space": "古科技园西路，莲花商务中心西门岗亭旁1.2号车位"
},
{
	"Id": 1063,
	"Name": "聚龙大厦",
	"Area": 5,
	"Longitude": 120.139314,
	"Latitude": 30.269015,
	"Address": "西湖区杭大路9号",
	"Space": "地下一层电梯出口处，垃圾房旁"
},
{
	"Id": 1062,
	"Name": "百脑汇",
	"Area": 5,
	"Longitude": 120.13502,
	"Latitude": 30.273917,
	"Address": "西湖区教工路23号",
	"Space": "地下停车库2楼，车位358、359，收费处旁边"
},
{
	"Id": 1061,
	"Name": "海创基地",
	"Area": 9,
	"Longitude": 120.13854,
	"Latitude": 30.18687,
	"Address": "滨江区六和路368号",
	"Space": "闻涛路和六和路交叉口（原UT斯达康）地面临时停车位，南门进北门出"
},
{
	"Id": 1060,
	"Name": "东方通信科技园",
	"Area": 9,
	"Longitude": 120.143601,
	"Latitude": 30.176984,
	"Address": "滨江区东信大道66号",
	"Space": "东方通信科技园正门口"
},
{
	"Id": 1059,
	"Name": "金桂大厦",
	"Area": 5,
	"Longitude": 120.098733,
	"Latitude": 30.282455,
	"Address": "西湖区古墩路387号",
	"Space": "西湖图书馆对面，金桂大厦正门口，临时停车区域"
},
{
	"Id": 1058,
	"Name": "新湖北国之春",
	"Area": 8,
	"Longitude": 120.141079,
	"Latitude": 30.316398,
	"Address": "拱墅区衢州街105号",
	"Space": "地面临时停车位"
},
{
	"Id": 1057,
	"Name": "新河公寓",
	"Area": 8,
	"Longitude": 120.150464,
	"Latitude": 30.285023,
	"Address": "拱墅区潮王路300号",
	"Space": "地面专用停车区域"
},
{
	"Id": 1056,
	"Name": "同方国际",
	"Area": 10,
	"Longitude": 120.19884,
	"Latitude": 30.27471,
	"Address": "江干区秋涛北路257号",
	"Space": "地面专用停车位"
},
{
	"Id": 1055,
	"Name": "钛合国际",
	"Area": 7,
	"Longitude": 120.170498,
	"Latitude": 30.278153,
	"Address": "下城区朝晖路168号",
	"Space": "地面专用停车区域"
},
{
	"Id": 1054,
	"Name": "嘉德广场",
	"Area": 7,
	"Longitude": 120.171952,
	"Latitude": 30.257927,
	"Address": "下城区庆春路118号",
	"Space": "地下车库一层专用车位"
},
{
	"Id": 1053,
	"Name": "同方财富大厦",
	"Area": 7,
	"Longitude": 120.167987,
	"Latitude": 30.264836,
	"Address": "下城区凤起路334号",
	"Space": "长寿桥小学对面同方财富大厦道闸车位内，垃圾房旁"
},
{
	"Id": 1052,
	"Name": "西湖国贸",
	"Area": 6,
	"Longitude": 120.16033,
	"Latitude": 30.25708,
	"Address": "上城区长生路58号",
	"Space": "地面专用停车位，爵色酒吧门口"
},
{
	"Id": 1051,
	"Name": "西湖铭楼",
	"Area": 7,
	"Longitude": 120.161,
	"Latitude": 30.2593,
	"Address": "下城区庆春路296号",
	"Space": "地面专用停车位，交通银行门口"
},
{
	"Id": 1050,
	"Name": "阳光都市·财富中心",
	"Area": 7,
	"Longitude": 120.181905,
	"Latitude": 30.274373,
	"Address": "下城区环城北路59号",
	"Space": "阳光都市·财富中心正门口"
},
{
	"Id": 1049,
	"Name": "蓝海时代大厦",
	"Area": 5,
	"Longitude": 120.114018,
	"Latitude": 30.279724,
	"Address": "西湖区益乐路39号",
	"Space": "地下车库一层临时停车位"
},
{
	"Id": 1048,
	"Name": "尚筑金座",
	"Area": 6,
	"Longitude": 120.192972,
	"Latitude": 30.237665,
	"Address": "上城区近江路108号",
	"Space": "地面专用停车位"
},
{
	"Id": 1047,
	"Name": "尊宝大厦",
	"Area": 10,
	"Longitude": 120.207818,
	"Latitude": 30.238956,
	"Address": "江干区城星路89号",
	"Space": "地面专用停车位"
},
{
	"Id": 1046,
	"Name": "双城国际",
	"Area": 9,
	"Longitude": 120.201944,
	"Latitude": 30.207098,
	"Address": "滨江区江汉路1785号",
	"Space": "双城国际东门门口28、29号"
},
{
	"Id": 1045,
	"Name": "赛丽绿城丽园",
	"Area": 6,
	"Longitude": 120.172359,
	"Latitude": 30.227973,
	"Address": "上城区江城路325号",
	"Space": "赛丽绿城丽园1幢旁边，公交雄镇楼站旁边"
},
{
	"Id": 1044,
	"Name": "金润科技园",
	"Area": 9,
	"Longitude": 120.198202,
	"Latitude": 30.18889,
	"Address": "滨江区春波路1517号",
	"Space": "地面专用停车区域"
},
{
	"Id": 1043,
	"Name": "绿城电商",
	"Area": 9,
	"Longitude": 120.200579,
	"Latitude": 30.189041,
	"Address": "滨江区滨安路756号",
	"Space": "绿城电商大门口左边，地面专用车位"
},
{
	"Id": 1042,
	"Name": "银丰大厦",
	"Area": 9,
	"Longitude": 120.212571,
	"Latitude": 30.212735,
	"Address": "滨江区滨盛路1505号",
	"Space": "银丰大厦正门右手边"
},
{
	"Id": 1041,
	"Name": "华成国际发展大厦",
	"Area": 10,
	"Longitude": 120.207826,
	"Latitude": 30.241521,
	"Address": "江干区富春路308号",
	"Space": "华城国际发展大厦正门口"
},
{
	"Id": 1040,
	"Name": "万银国际大厦",
	"Area": 10,
	"Longitude": 120.21778,
	"Latitude": 30.25304,
	"Address": "江干区民心路100号",
	"Space": "地下车库一层043、044专用车位"
},
{
	"Id": 1039,
	"Name": "大名空间商务大厦",
	"Area": 6,
	"Longitude": 120.17621,
	"Latitude": 30.21528,
	"Address": "上城区龙舌路46号",
	"Space": "地下车库二层E-01、E-02号"
},
{
	"Id": 1038,
	"Name": "新青年广场",
	"Area": 8,
	"Longitude": 120.157728,
	"Latitude": 30.296471,
	"Address": "拱墅区上塘路267号",
	"Space": "地面专用车位"
},
{
	"Id": 1037,
	"Name": "森禾商务广场",
	"Area": 10,
	"Longitude": 120.20625,
	"Latitude": 30.25338,
	"Address": "江干区杭海路238号",
	"Space": "森禾商务广场地面专用车位"
},
{
	"Id": 1036,
	"Name": "凤起时代大厦",
	"Area": 10,
	"Longitude": 120.206482,
	"Latitude": 30.263494,
	"Address": "江干区凤起东路336号",
	"Space": "地面专用车位"
},
{
	"Id": 1035,
	"Name": "梧桐公寓",
	"Area": 5,
	"Longitude": 120.12956,
	"Latitude": 30.28661,
	"Address": "西湖区文一路283号",
	"Space": "地下车库临时车位区域"
},
{
	"Id": 1034,
	"Name": "中田大厦",
	"Area": 5,
	"Longitude": 120.12978,
	"Latitude": 30.26889,
	"Address": "西湖区玉古路173号",
	"Space": "地下车库1层，130、131号车位"
},
{
	"Id": 1033,
	"Name": "三新大厦",
	"Area": 10,
	"Longitude": 120.20711,
	"Latitude": 30.260416,
	"Address": "江干区新塘路35号",
	"Space": "三新大厦正门口地面专用车位"
},
{
	"Id": 1032,
	"Name": "三新银座",
	"Area": 10,
	"Longitude": 120.20157,
	"Latitude": 30.26026,
	"Address": "江干区秋涛北路72号",
	"Space": "三新银座正门口，地面专用车位"
},
{
	"Id": 1031,
	"Name": "深蓝广场",
	"Area": 7,
	"Longitude": 120.16917,
	"Latitude": 30.276353,
	"Address": "下城区朝晖路203号",
	"Space": "地下车库二层C37"
},
{
	"Id": 1030,
	"Name": "物美文一店",
	"Area": 5,
	"Longitude": 120.12412,
	"Latitude": 30.288118,
	"Address": "西湖区文一路294号",
	"Space": "翠苑物美大卖场永和大王入口处"
},
{
	"Id": 1029,
	"Name": "滨江区政府",
	"Area": 9,
	"Longitude": 120.20951,
	"Latitude": 30.210178,
	"Address": "滨江区泰安路239号",
	"Space": "盾安发展大厦对面公共停车场"
},
{
	"Id": 1028,
	"Name": "望江路",
	"Area": 6,
	"Longitude": 120.179148,
	"Latitude": 30.235503,
	"Address": "上城区望江路立交桥东桥",
	"Space": "望江路立交桥东桥下停车场1区"
},
{
	"Id": 1027,
	"Name": "沃尔玛凤起店",
	"Area": 7,
	"Longitude": 120.18708,
	"Latitude": 30.263724,
	"Address": "下城区环城东路37号",
	"Space": "沃尔玛凤起店停车场，刀茅巷内"
},
{
	"Id": 1026,
	"Name": "新城时代广场",
	"Area": 10,
	"Longitude": 120.207188,
	"Latitude": 30.264027,
	"Address": "新城时代广场",
	"Space": "地下车库1层14、15"
},
{
	"Id": 1025,
	"Name": "东部软件园",
	"Area": 5,
	"Longitude": 120.145905,
	"Latitude": 30.278962,
	"Address": "西湖区文三路90号",
	"Space": "东部软件园园区内"
},
{
	"Id": 1024,
	"Name": "城站火车站",
	"Area": 6,
	"Longitude": 120.180567,
	"Latitude": 30.246646,
	"Address": "上城区城站路58号",
	"Space": "城站路58号，地铁C出口右转50米，浙一医院城站分院停车场"
},
{
	"Id": 1023,
	"Name": "奥斯卡电影大世界",
	"Area": 7,
	"Longitude": 120.159909,
	"Latitude": 30.263117,
	"Address": "下城区龙游路38号",
	"Space": "杭州鞋城４楼停车场"
},
{
	"Id": 1022,
	"Name": "凤凰城",
	"Area": 6,
	"Longitude": 120.176128,
	"Latitude": 30.219125,
	"Address": "上城区秋涛路28号",
	"Space": "三郎庙公交站对面，秋涛路与飞云江路立交桥下停车场B区"
},
{
	"Id": 1021,
	"Name": "软件服务外包基地",
	"Area": 9,
	"Longitude": 120.15889,
	"Latitude": 30.180207,
	"Address": "滨江区伟业路1号",
	"Space": "地下车库东门A1/A2/A3"
},
{
	"Id": 1020,
	"Name": "潮人汇",
	"Area": 9,
	"Longitude": 120.162157,
	"Latitude": 30.18494,
	"Address": "滨江区江南大道3688号",
	"Space": "通策广场地下车库门口，150，151，152(粤米粥对面)"
},
{
	"Id": 1019,
	"Name": "滨江高教园区",
	"Area": 9,
	"Longitude": 120.157919,
	"Latitude": 30.173026,
	"Address": "滨江区至善路337号",
	"Space": "立业园活动中心东门门口"
},
{
	"Id": 1018,
	"Name": "天堂软件园",
	"Area": 5,
	"Longitude": 120.117487,
	"Latitude": 30.289604,
	"Address": "西湖区西斗门路3号",
	"Space": "天堂软件园E幢后的草坪上"
},
{
	"Id": 1017,
	"Name": "西湖国际",
	"Area": 5,
	"Longitude": 120.121078,
	"Latitude": 30.280998,
	"Address": "西湖区文二路391号",
	"Space": "西湖国际科技大厦E北与E南之间，过道处，车纷享专用车位"
},
{
	"Id": 1016,
	"Name": "国家动画产业基地",
	"Area": 9,
	"Longitude": 120.160341,
	"Latitude": 30.183975,
	"Address": "滨江区江南大道3880号",
	"Space": "杭州国家动画产业基地地下车库47号，57号，车纷享专用车位"
},
{
	"Id": 1015,
	"Name": "乐富智汇园",
	"Area": 8,
	"Longitude": 120.112882,
	"Latitude": 30.334834,
	"Address": "拱墅区祥园路28号",
	"Space": "乐富智汇园东门"
},
{
	"Id": 1014,
	"Name": "浙大紫金港校区",
	"Area": 5,
	"Longitude": 120.092685,
	"Latitude": 30.304998,
	"Address": "西湖区余杭塘路866号",
	"Space": "浙大紫金港校区正门对面74路公交终点站里"
},
{
	"Id": 1012,
	"Name": "杭州瑞丰格琳酒店",
	"Area": 6,
	"Longitude": 120.184177,
	"Latitude": 30.254512,
	"Address": "上城区老浙大横路31号",
	"Space": "酒店正门车纷享专用停车位"
},
{
	"Id": 1011,
	"Name": "浙大玉泉校区",
	"Area": 5,
	"Longitude": 120.12739,
	"Latitude": 30.265195,
	"Address": "西湖区浙大路38号",
	"Space": "浙江大学玉泉校区新桥门停车场"
},
{
	"Id": 1010,
	"Name": "东忠科技园",
	"Area": 9,
	"Longitude": 120.197138,
	"Latitude": 30.188767,
	"Address": "滨江区长河路590号",
	"Space": "东忠科技园园区内"
},
{
	"Id": 1009,
	"Name": "黄龙时代广场",
	"Area": 5,
	"Longitude": 120.125172,
	"Latitude": 30.272659,
	"Address": "西湖区天目山路278号",
	"Space": "地下1层停车库1号出入口 6666 号停车位"
},
{
	"Id": 1008,
	"Name": "马可波罗花园酒店",
	"Area": 8,
	"Longitude": 120.147777,
	"Latitude": 30.345091,
	"Address": "拱墅区拱康路100号",
	"Space": "酒店内车纷享专用停车位"
},
{
	"Id": 1007,
	"Name": "海康威视",
	"Area": 9,
	"Longitude": 120.212153,
	"Latitude": 30.184288,
	"Address": "滨江区东流路700号",
	"Space": "江晖路/东流路交叉口，苏泊尔南门斜对面(春风集团往西100米)"
},
{
	"Id": 1006,
	"Name": "阿里巴巴",
	"Area": 9,
	"Longitude": 120.18995,
	"Latitude": 30.188709,
	"Address": "滨江区网商路699号",
	"Space": "阿里巴巴春波路园区门口车纷享专用停车位"
},
{
	"Id": 1005,
	"Name": "浙江传媒学院",
	"Area": 10,
	"Longitude": 120.342699,
	"Latitude": 30.319266,
	"Address": "江干区学源街998号",
	"Space": "传媒学院生活区和教学区中间停车场"
},
{
	"Id": 1004,
	"Name": "兰庭国际",
	"Area": 5,
	"Longitude": 120.139414,
	"Latitude": 30.284162,
	"Address": "西湖区文二路128号",
	"Space": "兰庭国际停车位"
},
{
	"Id": 1003,
	"Name": "赛博创业工场",
	"Area": 10,
	"Longitude": 120.222876,
	"Latitude": 30.331785,
	"Address": "江干区笕丁路168号",
	"Space": "赛博创业工场11幢后的停车位"
},
{
	"Id": 1000,
	"Name": "浙大科技园",
	"Area": 5,
	"Longitude": 120.110497,
	"Latitude": 30.267449,
	"Address": "西湖区西溪路525号",
	"Space": "浙大科技园国家大学科技园园区国家大学会议中心门口"
}]