[
    {
        "Name": "海创基地",
        "Longitude": 120.13854,
        "Latitude": 30.18687,
        "Address": "滨江区六和路368号(闻涛路和六和路交叉口，原UT斯达康)"
    },
    {
        
        "Name": "滨江地税",
        "Longitude": 120.207413542271,
        "Latitude": 30.2051933869656,
        "Address": "滨江区江南大道1328号(中兴大厦南面公共停车场内收费亭对面) "
        
    },
    {
        
        "Name": "恒生科技园",
        "Longitude": 120.005553514442,
        "Latitude": 30.2767284246692,
        "Address": "文一西路1218号（新省委党校西侧） "
        
    },
    {
        
        "Name": "恒生科技园",
        "Longitude": 120.005593514442,
        "Latitude": 30.2767384246692,
        "Address": "文一西路1218号（新省委党校西侧） "
        
    },
    {
        
        "Name": "恒生科技园",
        "Longitude": 120.005503514442,
        "Latitude": 30.2767484246692,
        "Address": "文一西路1218号（新省委党校西侧） "
        
    }
]