[
    {
        "Name": "魏公村 交大商圈",
        "Longitude": 116.321225595474,
        "Latitude": 39.9547771016226,
        "Address": "海淀区魏公村街1号"
    },
    {
        "Name": "西直门外商圈",
        "Longitude": 116.345174503326,
        "Latitude": 39.9332389572337,
        "Address": "西城区展览馆路乙8号楼"
    },
    {
        "Name": "中关村商圈",
        "Longitude": 116.315175390244,
        "Latitude": 39.9818953184002,
        "Address": "海淀区万泉河快速路"
    },
    {
        "Name": "苹果园商圈",
        "Longitude": 116.181915521622,
        "Latitude": 39.9278794838839,
        "Address": "石景山区苹果园大街7号"
    },
    {
        "Name": "T3航站楼",
        "Longitude": 116.613242411613,
        "Latitude": 40.0486006728182,
        "Address": "顺义区二经路"
    },
    {
        "Name": "金融街商圈",
        "Longitude": 116.345424699783,
        "Latitude": 39.9225419712955,
        "Address": "西城区阜成门外大街1-1号"
    },
    {
        "Name": "马连道商圈",
        "csoArea": 37,
        "Longitude": 116.326053786278,
        "Latitude": 39.8829230034295,
        "Address": "西城区马连道14号"
    },
    {
        "Name": "车公庄商圈",
        "Longitude": 116.349094176292,
        "Latitude": 39.9330917797074,
        "Address": "西城区车公庄大街9-4"
    },
    {
        "Name": "北京南站",
        "Longitude": 116.378776144981,
        "Latitude": 39.8650644718555,
        "Address": "丰台区北京南站路"
    },
    {
        "Name": "六里桥商圈",
        "Longitude": 116.321701526642,
        "Latitude": 39.8948620515813,
        "Address": "丰台区西客站南路12-3"
    },
    {
        "Name": "永定门商圈",
        "Longitude": 116.401494669914,
        "Latitude": 39.8695803883683,
        "Address": "丰台区马家堡东路乙22号"
    },
    {
        "Name": "崇文新世界商圈",
        "Longitude": 116.422335219383,
        "Latitude": 39.9012167318331,
        "Address": "东城区崇文门外大街3号"
    },
    {
        "Name": "工体三里屯商圈",
        "Longitude": 116.455136275291,
        "Latitude": 39.9347342432144,
        "Address": "朝阳区东三环北路16-1院"
    },
    {
        "Name": "安贞商圈",
        "Longitude": 116.403492379189,
        "Latitude": 39.9695777544826,
        "Address": "朝阳区三环"
    },
    {
        "Name": "cbd商圈",
        "Longitude": 116.452824854851,
        "Latitude": 39.9124205192533,
        "Address": "朝阳区光华路12号"
    },
    {
        "Name": "金隅大成玲珑天地卫星站",
        "Longitude": 116.276900911331,
        "Latitude": 39.9334939051454,
        "Address": "海淀区西四环北路160号（海淀五路居地铁站南侧）"
    },
    {
        "Name": "腾达大厦中心站",
        "Longitude": 116.326208013296,
        "Latitude": 39.9381002036008,
        "Address": "海淀区西外大街168号（白石新桥东南角）"
    },
    {
        "Name": "上地金地停车场中心站",
        "Longitude": 116.310165560246,
        "Latitude": 40.0421171735103,
        "Address": "地五街东口停车场内（上地五街与上地东路交叉口东南角）"
    },
    {
        "Name": "京都信苑卫星站",
        "Longitude": 116.312342011929,
        "Latitude": 39.8975389349295,
        "Address": "海淀区什坊院6号（莲花桥东北角）"
    },
    {
        "Name": "泰河园物美超市",
        "Longitude": 116.502242302895,
        "Latitude": 39.7700836434933,
        "Address": "泰河园一里一区15号楼"
    },
    {
        "Name": "亦庄创意生活广场",
        "Longitude": 116.504712510109,
        "Latitude": 39.8108296863062,
        "Address": "文化园东路6号"
    },
    {
        "Name": "BDA国际企业大道",
        "Longitude": 116.521146512032,
        "Latitude": 39.778415933863,
        "Address": "景园北街2号"
    },
    {
        "Name": "博大大厦亦庄管委会",
        "Longitude": 116.506611138582,
        "Latitude": 39.7955301721172,
        "Address": "荣华中路15号"
    },
    {
        "Name": "创新大厦",
        "Longitude": 116.508927226067,
        "Latitude": 39.800550667609,
        "Address": "宏达北路12号"
    },
    {
        "Name": "朝林广场",
        "Longitude": 116.506076306105,
        "Latitude": 39.7917599846911,
        "Address": "荣华中路19号院1号楼"
    },
    {
        "Name": "亦庄镇政府",
        "Longitude": 116.48181604743,
        "Latitude": 39.8002889606886,
        "Address": "西环北路23号"
    },
    {
        "Name": "力宝广场",
        "Longitude": 116.501014977694,
        "Latitude": 39.8047512777,
        "Address": "荣华中路8号"
    },
    {
        "Name": "隆盛大厦",
        "Longitude": 116.524961900711,
        "Latitude": 39.7836857632029,
        "Address": "荣昌东街甲5号"
    },
    {
        "Name": "中铁十九局大厦",
        "Longitude": 116.516516053677,
        "Latitude": 39.7858351341598,
        "Address": "荣华南路19号"
    },
    {
        "Name": "上海沙龙",
        "Longitude": 116.499890488386,
        "Latitude": 39.789284622887,
        "Address": "天宝南街天宝商业中心"
    },
    {
        "Name": "贵园北里",
        "Longitude": 116.479560470581,
        "Latitude": 39.7971017850435,
        "Address": "贵园北路"
    },
    {
        "Name": "林肯公园",
        "Longitude": 116.492600405216,
        "Latitude": 39.8033450172199,
        "Address": "北环西路8号"
    },
    {
        "Name": "亦庄文体中心",
        "Longitude": 116.477922767401,
        "Latitude": 39.7982523522513,
        "Address": "贵园北路"
    },
    {
        "Name": "汉阳生活娱乐广场",
        "Longitude": 116.498962497711,
        "Latitude": 39.8011675501541,
        "Address": "天华北街5号院"
    },
    {
        "Name": "中信银行开发区支行",
        "Longitude": 116.490631771088,
        "Latitude": 39.8013430771198,
        "Address": "天华园一里三区14号楼"
    },
    {
        "Name": "大雄商业中心",
        "Longitude": 116.495432281494,
        "Latitude": 39.7995558875134,
        "Address": "天华园二里二区19号"
    },
    {
        "Name": "中航技北京工业园",
        "Longitude": 116.5103713274,
        "Latitude": 39.7991251152829,
        "Address": "宏达北路16号"
    },
    {
        "Name": "北工大软件园",
        "Longitude": 116.495616281033,
        "Latitude": 39.7830966737862,
        "Address": "地盛北街1号"
    },
    {
        "Name": "兴基铂尔曼大酒店",
        "Longitude": 116.516367405653,
        "Latitude": 39.7861185789896,
        "Address": "荣华南路12号"
    },
    {
        "Name": "锦江富园大酒店",
        "Longitude": 116.503711563349,
        "Latitude": 39.7996595411634,
        "Address": "荣华中路11号"
    },
    {
        "Name": "丰大国际酒店",
        "Longitude": 116.50888055563,
        "Latitude": 39.7958520319385,
        "Address": "荣华中路20号"
    },
    {
        "Name": "荣京东街地铁站",
        "Longitude": 116.513348847628,
        "Latitude": 39.793601330973,
        "Address": "荣京东街地铁站"
    },
    {
        "Name": "亦庄桥地铁站",
        "Longitude": 116.479913127422,
        "Latitude": 39.8027819362455,
        "Address": "亦庄桥地铁站"
    }
]